timestamp,command,command_type,arm,dx,dy,dz,cumulative_right_dx,cumulative_right_dy,cumulative_right_dz,cumulative_left_dx,cumulative_left_dy,cumulative_left_dz,repeat_command,repeat_index,repeat_total,repeat_status,completed_steps,joint_targets,wrist_roll_target,wrist_yaw_delta_or_target,wrist_pitch_delta_or_target,gripper_position,dry_run,execute,user_confirmed,status,observed_alignment,user_observation,risk_detected,candidate_name,candidate_file
2026-05-21T10:53:18+08:00,w,unknown,,,,,0.000000,0.000000,0.000000,0.000000,0.000000,0.000000,,,,,,,,,,,false,true,,unknown_command,,,false,,
2026-05-21T10:53:55+08:00,replay_right_grasp_cup,replay_stage,right,,,,0.000000,0.000000,0.000000,0.000000,0.000000,0.000000,,,,,,"[{""source_stage"":""right_hand_grasp_cup"",""source_action_id"":""004"",""kind"":""gripper"",""target"":""right_gripper"",""method"":""set_position"",""value"":0.0,""block"":true,""description"":""右夹爪初始化为闭合"",""enabled"":true,""source_sdk_call"":""robot.right_gripper.close()""},{""source_stage"":""right_hand_grasp_cup"",""source_action_id"":""005"",""kind"":""gripper"",""target"":""left_gripper"",""method"":""set_position"",""value"":0.0,""block"":true,""description"":""左夹爪初始化为闭合，仅 --include-left-gripper-init 时执行"",""enabled"":false,""source_sdk_call"":""robot.left_gripper.close()""},{""source_stage"":""right_hand_grasp_cup"",""source_action_id"":""006"",""kind"":""gripper"",""target"":""right_gripper"",""method"":""set_position"",""value"":1.0,""block"":true,""description"":""右夹爪打开准备抓杯"",""enabled"":true,""source_sdk_call"":""robot.right_gripper.open()""},{""source_stage"":""right_hand_grasp_cup"",""source_action_id"":""007"",""kind"":""arm"",""target"":""right_arm"",""method"":""set_shoulder_pitch"",""value"":0.7,""block"":false,""description"":""右肩俯仰到抓杯预备位"",""enabled"":true,""source_sdk_call"":""""},{""source_stage"":""right_hand_grasp_cup"",""source_action_id"":""008"",""kind"":""arm"",""target"":""right_arm"",""method"":""set_shoulder_roll"",""value"":-0.42,""block"":false,""description"":""右肩翻滚到抓杯预备位"",""enabled"":true,""source_sdk_call"":""""},{""source_stage"":""right_hand_grasp_cup"",""source_action_id"":""009"",""kind"":""arm"",""target"":""right_arm"",""method"":""set_wrist_roll"",""value"":0.1,""block"":true,""description"":""右腕翻滚对齐杯把方向"",""enabled"":true,""source_sdk_call"":""""},{""source_stage"":""right_hand_grasp_cup"",""source_action_id"":""010"",""kind"":""arm"",""target"":""right_arm"",""method"":""set_elbow_pitch"",""value"":1.0,""block"":false,""description"":""右肘下探接近杯子"",""enabled"":true,""source_sdk_call"":""""},{""source_stage"":""right_hand_grasp_cup"",""source_action_id"":""011"",""kind"":""arm"",""target"":""right_arm"",""method"":""set_wrist_pitch"",""value"":0.1,""block"":true,""description"":""右腕俯仰微调抓取姿态"",""enabled"":true,""source_sdk_call"":""""},{""source_stage"":""right_hand_grasp_cup"",""source_action_id"":""012"",""kind"":""sleep"",""target"":""robot"",""method"":""sleep"",""value"":1.0,""block"":true,""description"":""保留原始抓杯前等待"",""enabled"":true,""source_sdk_call"":""""},{""source_stage"":""right_hand_grasp_cup"",""source_action_id"":""013"",""kind"":""gripper"",""target"":""right_gripper"",""method"":""set_position"",""value"":0.8,""block"":true,""description"":""右夹爪收至抓杯位置；source_sdk_call 是原始 0.6，实际执行使用 --right-gripper-cup-position，标定默认 0.80"",""enabled"":true,""source_sdk_call"":""robot.right_gripper.set_position(0.6)""},{""source_stage"":""right_hand_grasp_cup"",""source_action_id"":""014"",""kind"":""sleep"",""target"":""robot"",""method"":""sleep"",""value"":1.0,""block"":true,""description"":""保留原始抓杯后等待"",""enabled"":true,""source_sdk_call"":""""},{""source_stage"":""right_hand_grasp_cup"",""source_action_id"":""015"",""kind"":""arm"",""target"":""right_arm"",""method"":""set_elbow_pitch"",""value"":0.6,""block"":false,""description"":""右肘抬起准备离开杯架"",""enabled"":true,""source_sdk_call"":""""},{""source_stage"":""right_hand_grasp_cup"",""source_action_id"":""016"",""kind"":""arm"",""target"":""right_arm"",""method"":""set_shoulder_pitch"",""value"":0.6,""block"":true,""description"":""右肩俯仰抬杯离桌"",""enabled"":true,""source_sdk_call"":""""},{""source_stage"":""right_hand_grasp_cup"",""source_action_id"":""017"",""kind"":""wait"",""target"":""robot"",""method"":""wait"",""value"":null,""block"":true,""description"":""阶段结束统一等待，兜底处理 block=False 动作"",""enabled"":true,""source_sdk_call"":""""},{""source_stage"":""right_hand_grasp_cup"",""source_action_id"":""018"",""kind"":""sleep"",""target"":""robot"",""method"":""sleep"",""value"":0.5,""block"":true,""description"":""阶段结束后观察停稳"",""enabled"":true,""source_sdk_call"":""""}]",,,,,false,true,true,ok,,,false,,
2026-05-21T10:54:02+08:00,replay_right_move_to_coffee_machine,replay_stage,right,,,,0.000000,0.000000,0.000000,0.000000,0.000000,0.000000,,,,,,"[{""source_stage"":""right_hand_move_to_coffee_machine"",""source_action_id"":""019"",""kind"":""arm"",""target"":""right_arm"",""method"":""set_shoulder_roll"",""value"":0.3,""block"":null,""description"":""右肩翻滚离开抓杯位"",""enabled"":true,""source_sdk_call"":""""},{""source_stage"":""right_hand_move_to_coffee_machine"",""source_action_id"":""020"",""kind"":""arm"",""target"":""right_arm"",""method"":""set_shoulder_pitch"",""value"":0.7,""block"":false,""description"":""右肩俯仰朝向咖啡机"",""enabled"":true,""source_sdk_call"":""""},{""source_stage"":""right_hand_move_to_coffee_machine"",""source_action_id"":""021"",""kind"":""arm"",""target"":""right_arm"",""method"":""set_shoulder_roll"",""value"":0.65,""block"":false,""description"":""右肩翻滚横向送杯到咖啡机"",""enabled"":true,""source_sdk_call"":""""},{""source_stage"":""right_hand_move_to_coffee_machine"",""source_action_id"":""022"",""kind"":""arm"",""target"":""right_arm"",""method"":""set_wrist_roll"",""value"":-0.3,""block"":null,""description"":""右腕翻滚调整接咖啡角度"",""enabled"":true,""source_sdk_call"":""""},{""source_stage"":""right_hand_move_to_coffee_machine"",""source_action_id"":""023"",""kind"":""arm"",""target"":""right_arm"",""method"":""set_shoulder_pitch"",""value"":0.98,""block"":false,""description"":""右肩俯仰继续送杯到咖啡出口"",""enabled"":true,""source_sdk_call"":""""},{""source_stage"":""right_hand_move_to_coffee_machine"",""source_action_id"":""024"",""kind"":""arm"",""target"":""right_arm"",""method"":""set_elbow_pitch"",""value"":0.98,""block"":false,""description"":""右肘俯仰配合送杯到最终接咖啡位"",""enabled"":true,""source_sdk_call"":""""},{""source_stage"":""right_hand_move_to_coffee_machine"",""source_action_id"":""025"",""kind"":""arm"",""target"":""right_arm"",""method"":""set_wrist_roll"",""value"":-0.68,""block"":false,""description"":""右腕翻滚微调接咖啡姿态"",""enabled"":true,""source_sdk_call"":""""},{""source_stage"":""right_hand_move_to_coffee_machine"",""source_action_id"":""026"",""kind"":""arm"",""target"":""right_arm"",""method"":""set_wrist_pitch"",""value"":0.0,""block"":true,""description"":""右腕俯仰归零以对齐杯口"",""enabled"":true,""source_sdk_call"":""""},{""source_stage"":""right_hand_move_to_coffee_machine"",""source_action_id"":""027"",""kind"":""wait"",""target"":""robot"",""method"":""wait"",""value"":null,""block"":true,""description"":""阶段结束统一等待"",""enabled"":true,""source_sdk_call"":""""},{""source_stage"":""right_hand_move_to_coffee_machine"",""source_action_id"":""028"",""kind"":""sleep"",""target"":""robot"",""method"":""sleep"",""value"":0.5,""block"":true,""description"":""阶段结束后观察停稳"",""enabled"":true,""source_sdk_call"":""""}]",,,,,false,true,true,ok,,,false,,
2026-05-21T10:54:09+08:00,replay_right_retreat_after_coffee,replay_stage,right,,,,0.000000,0.000000,0.000000,0.000000,0.000000,0.000000,,,,,,"[{""source_stage"":""right_hand_retreat_after_coffee"",""source_action_id"":""037"",""kind"":""arm"",""target"":""right_arm"",""method"":""home"",""value"":null,""block"":null,""description"":""右臂从咖啡机位置回撤到 home"",""enabled"":true,""source_sdk_call"":""""},{""source_stage"":""right_hand_retreat_after_coffee"",""source_action_id"":""038"",""kind"":""arm"",""target"":""right_arm"",""method"":""set_shoulder_roll"",""value"":0.6,""block"":false,""description"":""右肩翻滚切到后续接奶中间姿态"",""enabled"":true,""source_sdk_call"":""""},{""source_stage"":""right_hand_retreat_after_coffee"",""source_action_id"":""039"",""kind"":""arm"",""target"":""right_arm"",""method"":""set_wrist_pitch"",""value"":-0.3,""block"":true,""description"":""右腕俯仰切到后续接奶中间姿态"",""enabled"":true,""source_sdk_call"":""""},{""source_stage"":""right_hand_retreat_after_coffee"",""source_action_id"":""040"",""kind"":""wait"",""target"":""robot"",""method"":""wait"",""value"":null,""block"":true,""description"":""阶段结束统一等待"",""enabled"":true,""source_sdk_call"":""""},{""source_stage"":""right_hand_retreat_after_coffee"",""source_action_id"":""041"",""kind"":""sleep"",""target"":""robot"",""method"":""sleep"",""value"":0.5,""block"":true,""description"":""阶段结束后观察停稳"",""enabled"":true,""source_sdk_call"":""""}]",,,,,false,true,true,ok,,,false,,
2026-05-21T10:54:16+08:00,replay_right_pour_ready,replay_stage,right,,,,0.000000,0.000000,0.000000,0.000000,0.000000,0.000000,,,,,,"[{""source_stage"":""left_hand_move_to_pour_pose"",""source_action_id"":""061"",""kind"":""arm"",""target"":""right_arm"",""method"":""set_wrist_yaw"",""value"":-0.7,""block"":false,""description"":""右腕偏航对准接奶方向"",""enabled"":true,""source_sdk_call"":""""},{""source_stage"":""left_hand_move_to_pour_pose"",""source_action_id"":""062"",""kind"":""arm"",""target"":""right_arm"",""method"":""set_wrist_pitch"",""value"":0.1,""block"":false,""description"":""右腕俯仰切到接奶角度"",""enabled"":true,""source_sdk_call"":""""},{""source_stage"":""left_hand_move_to_pour_pose"",""source_action_id"":""063"",""kind"":""arm"",""target"":""right_arm"",""method"":""set_wrist_roll"",""value"":0.2,""block"":false,""description"":""右腕翻滚调整杯口姿态"",""enabled"":true,""source_sdk_call"":""""},{""source_stage"":""left_hand_move_to_pour_pose"",""source_action_id"":""064"",""kind"":""arm"",""target"":""right_arm"",""method"":""set_shoulder_roll"",""value"":0.7,""block"":false,""description"":""右肩翻滚切到接奶位"",""enabled"":true,""source_sdk_call"":""""},{""source_stage"":""pour_alignment_calib_optional_clearance"",""source_action_id"":""064a"",""kind"":""arm"",""target"":""right_arm"",""method"":""set_elbow_pitch"",""value"":0.25,""block"":true,""description"":""可选：右肘俯仰微调接奶间隙，仅显式传参时执行"",""enabled"":true,""source_sdk_call"":""""},{""source_stage"":""pour_alignment_calib_optional_clearance"",""source_action_id"":""064b"",""kind"":""arm"",""target"":""right_arm"",""method"":""set_shoulder_pitch"",""value"":null,""block"":true,""description"":""可选：右肩俯仰微调接奶间隙，仅显式传参时执行"",""enabled"":false,""source_sdk_call"":""""},{""source_stage"":""left_hand_move_to_pour_pose"",""source_action_id"":""065"",""kind"":""sleep"",""target"":""robot"",""method"":""sleep"",""value"":1.0,""block"":true,""description"":""保留原始倒奶前等待"",""enabled"":true,""source_sdk_call"":""""},{""source_stage"":""left_hand_move_to_pour_pose"",""source_action_id"":""066"",""kind"":""wait"",""target"":""robot"",""method"":""wait"",""value"":null,""block"":true,""description"":""阶段结束统一等待"",""enabled"":true,""source_sdk_call"":""""},{""source_stage"":""left_hand_move_to_pour_pose"",""source_action_id"":""067"",""kind"":""sleep"",""target"":""robot"",""method"":""sleep"",""value"":0.5,""block"":true,""description"":""阶段结束后观察停稳"",""enabled"":true,""source_sdk_call"":""""}]",,,,,false,true,true,ok,,,false,,
2026-05-21T10:54:34+08:00,right_x+,arm_relative_ik,right,0.005000,0.000000,0.000000,0.005000,0.000000,0.000000,0.000000,0.000000,0.000000,right_x+,1,14,ok,1,,,,,,false,true,true,success,,,false,,
2026-05-21T10:54:35+08:00,right_x+,arm_relative_ik,right,0.005000,0.000000,0.000000,0.010000,0.000000,0.000000,0.000000,0.000000,0.000000,right_x+,2,14,ok,2,,,,,,false,true,true,success,,,false,,
2026-05-21T10:54:36+08:00,right_x+,arm_relative_ik,right,0.005000,0.000000,0.000000,0.015000,0.000000,0.000000,0.000000,0.000000,0.000000,right_x+,3,14,ok,3,,,,,,false,true,true,success,,,false,,
2026-05-21T10:54:37+08:00,right_x+,arm_relative_ik,right,0.005000,0.000000,0.000000,0.020000,0.000000,0.000000,0.000000,0.000000,0.000000,right_x+,4,14,ok,4,,,,,,false,true,true,success,,,false,,
2026-05-21T10:54:38+08:00,right_x+,arm_relative_ik,right,0.005000,0.000000,0.000000,0.025000,0.000000,0.000000,0.000000,0.000000,0.000000,right_x+,5,14,ok,5,,,,,,false,true,true,success,,,false,,
2026-05-21T10:54:39+08:00,right_x+,arm_relative_ik,right,0.005000,0.000000,0.000000,0.030000,0.000000,0.000000,0.000000,0.000000,0.000000,right_x+,6,14,ok,6,,,,,,false,true,true,success,,,false,,
2026-05-21T10:54:40+08:00,right_x+,arm_relative_ik,right,0.005000,0.000000,0.000000,0.035000,0.000000,0.000000,0.000000,0.000000,0.000000,right_x+,7,14,ok,7,,,,,,false,true,true,success,,,false,,
2026-05-21T10:54:41+08:00,right_x+,arm_relative_ik,right,0.005000,0.000000,0.000000,0.040000,0.000000,0.000000,0.000000,0.000000,0.000000,right_x+,8,14,ok,8,,,,,,false,true,true,success,,,false,,
2026-05-21T10:54:42+08:00,right_x+,arm_relative_ik,right,0.005000,0.000000,0.000000,0.045000,0.000000,0.000000,0.000000,0.000000,0.000000,right_x+,9,14,ok,9,,,,,,false,true,true,success,,,false,,
2026-05-21T10:54:43+08:00,right_x+,arm_relative_ik,right,0.005000,0.000000,0.000000,0.050000,0.000000,0.000000,0.000000,0.000000,0.000000,right_x+,10,14,ok,10,,,,,,false,true,true,success,,,false,,
2026-05-21T10:54:44+08:00,right_x+,arm_relative_ik,right,0.005000,0.000000,0.000000,0.055000,0.000000,0.000000,0.000000,0.000000,0.000000,right_x+,11,14,ok,11,,,,,,false,true,true,success,,,false,,
2026-05-21T10:54:45+08:00,right_x+,arm_relative_ik,right,0.005000,0.000000,0.000000,0.060000,0.000000,0.000000,0.000000,0.000000,0.000000,right_x+,12,14,ok,12,,,,,,false,true,true,success,,,false,,
2026-05-21T10:54:46+08:00,right_x+,arm_relative_ik,right,0.005000,0.000000,0.000000,0.065000,0.000000,0.000000,0.000000,0.000000,0.000000,right_x+,13,14,ok,13,,,,,,false,true,true,success,,,false,,
2026-05-21T10:54:47+08:00,right_x+,arm_relative_ik,right,0.005000,0.000000,0.000000,0.070000,0.000000,0.000000,0.000000,0.000000,0.000000,right_x+,14,14,ok,14,,,,,,false,true,true,success,,,false,,
2026-05-21T10:54:47+08:00,right_x+ 14,repeat,,,,,0.070000,0.000000,0.000000,0.000000,0.000000,0.000000,right_x+,,14,ok,14,,,,,,false,true,true,success,,,false,,
2026-05-21T10:55:13+08:00,left_open,gripper,left,,,,0.070000,0.000000,0.000000,0.000000,0.000000,0.000000,,,,,,,,,,1.000000,false,true,true,success,,,false,,
2026-05-21T10:55:24+08:00,left_grip,gripper,left,,,,0.070000,0.000000,0.000000,0.000000,0.000000,0.000000,,,,,,,,,,0.700000,false,true,true,success,,,false,,
2026-05-21T10:55:44+08:00,replay_left_move_to_pour_pose_left_only,replay_stage,right,,,,0.070000,0.000000,0.000000,0.000000,0.000000,0.000000,,,,,,"[{""source_stage"":""left_hand_move_to_pour_pose"",""source_action_id"":""068"",""kind"":""arm"",""target"":""left_arm"",""method"":""set_elbow_pitch"",""value"":0.9,""block"":true,""description"":""左肘进入倒奶预备过渡位"",""enabled"":true,""source_sdk_call"":""""},{""source_stage"":""left_hand_move_to_pour_pose"",""source_action_id"":""069"",""kind"":""arm"",""target"":""left_arm"",""method"":""set_shoulder_pitch"",""value"":0.2,""block"":false,""description"":""左肩俯仰进入倒奶预备区"",""enabled"":true,""source_sdk_call"":""""},{""source_stage"":""left_hand_move_to_pour_pose"",""source_action_id"":""070"",""kind"":""arm"",""target"":""left_arm"",""method"":""set_elbow_pitch"",""value"":0.4,""block"":true,""description"":""左肘回到预备区中间姿态"",""enabled"":true,""source_sdk_call"":""""},{""source_stage"":""left_hand_move_to_pour_pose"",""source_action_id"":""071"",""kind"":""arm"",""target"":""left_arm"",""method"":""home"",""value"":null,""block"":false,""description"":""严格复现源阶段中的 left_arm.home(block=False)"",""enabled"":true,""source_sdk_call"":""""},{""source_stage"":""left_hand_move_to_pour_pose"",""source_action_id"":""072"",""kind"":""arm"",""target"":""left_arm"",""method"":""set_wrist_pitch"",""value"":-0.45,""block"":true,""description"":""左腕俯仰接入倒奶预备位"",""enabled"":true,""source_sdk_call"":""""},{""source_stage"":""left_hand_move_to_pour_pose"",""source_action_id"":""073"",""kind"":""wait"",""target"":""robot"",""method"":""wait"",""value"":null,""block"":true,""description"":""阶段结束统一等待"",""enabled"":true,""source_sdk_call"":""""},{""source_stage"":""left_hand_move_to_pour_pose"",""source_action_id"":""074"",""kind"":""sleep"",""target"":""robot"",""method"":""sleep"",""value"":0.5,""block"":true,""description"":""阶段结束后观察停稳"",""enabled"":true,""source_sdk_call"":""""}]",,,,,false,true,true,ok,,,false,,
2026-05-21T10:55:55+08:00,replay_left_pour_prep_frame,replay_stage,right,,,,0.070000,0.000000,0.000000,0.000000,0.000000,0.000000,,,,,,"[{""source_stage"":""left_hand_pour_milk"",""source_action_id"":""075"",""kind"":""arm"",""target"":""left_arm"",""method"":""set_shoulder_pitch"",""value"":-0.35,""block"":false,""description"":""左肩俯仰进入倒奶前姿态框架"",""enabled"":true,""source_sdk_call"":""""},{""source_stage"":""left_hand_pour_milk"",""source_action_id"":""076"",""kind"":""arm"",""target"":""left_arm"",""method"":""set_elbow_pitch"",""value"":-0.42,""block"":false,""description"":""左肘进入倒奶前姿态框架"",""enabled"":true,""source_sdk_call"":""""},{""source_stage"":""left_hand_pour_milk"",""source_action_id"":""077"",""kind"":""arm"",""target"":""left_arm"",""method"":""set_shoulder_roll"",""value"":0.5,""block"":false,""description"":""左肩 roll 进入倒奶前姿态框架"",""enabled"":true,""source_sdk_call"":""""},{""source_stage"":""left_hand_pour_milk"",""source_action_id"":""078"",""kind"":""wait"",""target"":""robot"",""method"":""wait"",""value"":null,""block"":true,""description"":""阶段结束统一等待；不自动执行 wrist_roll=1.05"",""enabled"":true,""source_sdk_call"":""""},{""source_stage"":""left_hand_pour_milk"",""source_action_id"":""079"",""kind"":""sleep"",""target"":""robot"",""method"":""sleep"",""value"":0.5,""block"":true,""description"":""阶段结束后观察停稳"",""enabled"":true,""source_sdk_call"":""""}]",,,,,false,true,true,ok,,,false,,
2026-05-21T10:56:59+08:00,right_x+,arm_relative_ik,right,0.005000,0.000000,0.000000,0.075000,0.000000,0.000000,0.000000,0.000000,0.000000,right_x+,1,14,ok,1,,,,,,false,true,true,success,,,false,,
2026-05-21T10:57:00+08:00,right_x+,arm_relative_ik,right,0.005000,0.000000,0.000000,0.080000,0.000000,0.000000,0.000000,0.000000,0.000000,right_x+,2,14,ok,2,,,,,,false,true,true,success,,,false,,
2026-05-21T10:57:01+08:00,right_x+,arm_relative_ik,right,0.005000,0.000000,0.000000,0.085000,0.000000,0.000000,0.000000,0.000000,0.000000,right_x+,3,14,ok,3,,,,,,false,true,true,success,,,false,,
2026-05-21T10:57:02+08:00,right_x+,arm_relative_ik,right,0.005000,0.000000,0.000000,0.090000,0.000000,0.000000,0.000000,0.000000,0.000000,right_x+,4,14,ok,4,,,,,,false,true,true,success,,,false,,
2026-05-21T10:57:03+08:00,right_x+,arm_relative_ik,right,0.005000,0.000000,0.000000,0.095000,0.000000,0.000000,0.000000,0.000000,0.000000,right_x+,5,14,ok,5,,,,,,false,true,true,success,,,false,,
2026-05-21T10:57:04+08:00,right_x+,arm_relative_ik,right,0.005000,0.000000,0.000000,0.100000,0.000000,0.000000,0.000000,0.000000,0.000000,right_x+,6,14,ok,6,,,,,,false,true,true,success,,,false,,
2026-05-21T10:57:05+08:00,right_x+,arm_relative_ik,right,0.005000,0.000000,0.000000,0.105000,0.000000,0.000000,0.000000,0.000000,0.000000,right_x+,7,14,ok,7,,,,,,false,true,true,success,,,false,,
2026-05-21T10:57:06+08:00,right_x+,arm_relative_ik,right,0.005000,0.000000,0.000000,0.110000,0.000000,0.000000,0.000000,0.000000,0.000000,right_x+,8,14,ok,8,,,,,,false,true,true,success,,,false,,
2026-05-21T10:57:07+08:00,right_x+,arm_relative_ik,right,0.005000,0.000000,0.000000,0.115000,0.000000,0.000000,0.000000,0.000000,0.000000,right_x+,9,14,ok,9,,,,,,false,true,true,success,,,false,,
2026-05-21T10:57:08+08:00,right_x+,arm_relative_ik,right,0.005000,0.000000,0.000000,0.120000,0.000000,0.000000,0.000000,0.000000,0.000000,right_x+,10,14,ok,10,,,,,,false,true,true,success,,,false,,
2026-05-21T10:57:09+08:00,right_x+,arm_relative_ik,right,0.005000,0.000000,0.000000,0.125000,0.000000,0.000000,0.000000,0.000000,0.000000,right_x+,11,14,ok,11,,,,,,false,true,true,success,,,false,,
2026-05-21T10:57:10+08:00,right_x+,arm_relative_ik,right,0.005000,0.000000,0.000000,0.130000,0.000000,0.000000,0.000000,0.000000,0.000000,right_x+,12,14,ok,12,,,,,,false,true,true,success,,,false,,
2026-05-21T10:57:11+08:00,right_x+,arm_relative_ik,right,0.005000,0.000000,0.000000,0.135000,0.000000,0.000000,0.000000,0.000000,0.000000,right_x+,13,14,ok,13,,,,,,false,true,true,success,,,false,,
2026-05-21T10:57:12+08:00,right_x+,arm_relative_ik,right,0.005000,0.000000,0.000000,0.140000,0.000000,0.000000,0.000000,0.000000,0.000000,right_x+,14,14,ok,14,,,,,,false,true,true,success,,,false,,
2026-05-21T10:57:12+08:00,right_x+ 14,repeat,,,,,0.140000,0.000000,0.000000,0.000000,0.000000,0.000000,right_x+,,14,ok,14,,,,,,false,true,true,success,,,false,,
2026-05-21T10:58:14+08:00,left_x+,arm_relative_ik,left,0.005000,0.000000,0.000000,0.140000,0.000000,0.000000,0.005000,0.000000,0.000000,,,,,,,,,,,false,true,true,success,,,false,,
2026-05-21T10:58:27+08:00,left_x-,arm_relative_ik,left,-0.005000,0.000000,0.000000,0.140000,0.000000,0.000000,0.000000,0.000000,0.000000,,,,,,,,,,,false,true,true,success,,,false,,
2026-05-21T10:58:35+08:00,left_x-,arm_relative_ik,left,-0.005000,0.000000,0.000000,0.140000,0.000000,0.000000,-0.005000,0.000000,0.000000,,,,,,,,,,,false,true,true,success,,,false,,
2026-05-21T10:58:55+08:00,left_x-,arm_relative_ik,left,-0.005000,0.000000,0.000000,0.140000,0.000000,0.000000,-0.010000,0.000000,0.000000,left_x-,1,14,ok,1,,,,,,false,true,true,success,,,false,,
2026-05-21T10:58:56+08:00,left_x-,arm_relative_ik,left,-0.005000,0.000000,0.000000,0.140000,0.000000,0.000000,-0.015000,0.000000,0.000000,left_x-,2,14,ok,2,,,,,,false,true,true,success,,,false,,
2026-05-21T10:58:57+08:00,left_x-,arm_relative_ik,left,-0.005000,0.000000,0.000000,0.140000,0.000000,0.000000,-0.020000,0.000000,0.000000,left_x-,3,14,ok,3,,,,,,false,true,true,success,,,false,,
2026-05-21T10:58:58+08:00,left_x-,arm_relative_ik,left,-0.005000,0.000000,0.000000,0.140000,0.000000,0.000000,-0.025000,0.000000,0.000000,left_x-,4,14,ok,4,,,,,,false,true,true,success,,,false,,
2026-05-21T10:58:59+08:00,left_x-,arm_relative_ik,left,-0.005000,0.000000,0.000000,0.140000,0.000000,0.000000,-0.030000,0.000000,0.000000,left_x-,5,14,ok,5,,,,,,false,true,true,success,,,false,,
2026-05-21T10:59:00+08:00,left_x-,arm_relative_ik,left,-0.005000,0.000000,0.000000,0.140000,0.000000,0.000000,-0.035000,0.000000,0.000000,left_x-,6,14,ok,6,,,,,,false,true,true,success,,,false,,
2026-05-21T10:59:01+08:00,left_x-,arm_relative_ik,left,-0.005000,0.000000,0.000000,0.140000,0.000000,0.000000,-0.040000,0.000000,0.000000,left_x-,7,14,ok,7,,,,,,false,true,true,success,,,false,,
2026-05-21T10:59:02+08:00,left_x-,arm_relative_ik,left,-0.005000,0.000000,0.000000,0.140000,0.000000,0.000000,-0.045000,0.000000,0.000000,left_x-,8,14,ok,8,,,,,,false,true,true,success,,,false,,
2026-05-21T10:59:03+08:00,left_x-,arm_relative_ik,left,-0.005000,0.000000,0.000000,0.140000,0.000000,0.000000,-0.050000,0.000000,0.000000,left_x-,9,14,ok,9,,,,,,false,true,true,success,,,false,,
2026-05-21T10:59:05+08:00,left_x-,arm_relative_ik,left,-0.005000,0.000000,0.000000,0.140000,0.000000,0.000000,-0.055000,0.000000,0.000000,left_x-,10,14,ok,10,,,,,,false,true,true,success,,,false,,
2026-05-21T10:59:06+08:00,left_x-,arm_relative_ik,left,-0.005000,0.000000,0.000000,0.140000,0.000000,0.000000,-0.060000,0.000000,0.000000,left_x-,11,14,ok,11,,,,,,false,true,true,success,,,false,,
2026-05-21T10:59:07+08:00,left_x-,arm_relative_ik,left,-0.005000,0.000000,0.000000,0.140000,0.000000,0.000000,-0.065000,0.000000,0.000000,left_x-,12,14,ok,12,,,,,,false,true,true,success,,,false,,
2026-05-21T10:59:08+08:00,left_x-,arm_relative_ik,left,-0.005000,0.000000,0.000000,0.140000,0.000000,0.000000,-0.070000,0.000000,0.000000,left_x-,13,14,ok,13,,,,,,false,true,true,success,,,false,,
2026-05-21T10:59:09+08:00,left_x-,arm_relative_ik,left,-0.005000,0.000000,0.000000,0.140000,0.000000,0.000000,-0.075000,0.000000,0.000000,left_x-,14,14,ok,14,,,,,,false,true,true,success,,,false,,
2026-05-21T10:59:09+08:00,left_x- 14,repeat,,,,,0.140000,0.000000,0.000000,-0.075000,0.000000,0.000000,left_x-,,14,ok,14,,,,,,false,true,true,success,,,false,,
2026-05-21T11:01:37+08:00,left_y+,arm_relative_ik,left,0.000000,0.003000,0.000000,0.140000,0.000000,0.000000,-0.075000,0.003000,0.000000,,,,,,,,,,,false,true,true,success,,,false,,
2026-05-21T11:01:50+08:00,left_y-,arm_relative_ik,left,0.000000,-0.003000,0.000000,0.140000,0.000000,0.000000,-0.075000,0.000000,0.000000,,,,,,,,,,,false,true,true,success,,,false,,
2026-05-21T11:02:07+08:00,left_z+,arm_relative_ik,left,0.000000,0.000000,0.005000,0.140000,0.000000,0.000000,-0.075000,0.000000,0.005000,,,,,,,,,,,false,true,true,success,,,false,,
2026-05-21T11:02:13+08:00,left_z+,arm_relative_ik,left,0.000000,0.000000,0.005000,0.140000,0.000000,0.000000,-0.075000,0.000000,0.010000,,,,,,,,,,,false,true,true,success,,,false,,
2026-05-21T11:02:29+08:00,left_z+,arm_relative_ik,left,0.000000,0.000000,0.005000,0.140000,0.000000,0.000000,-0.075000,0.000000,0.015000,left_z+,1,5,ok,1,,,,,,false,true,true,success,,,false,,
2026-05-21T11:02:30+08:00,left_z+,arm_relative_ik,left,0.000000,0.000000,0.005000,0.140000,0.000000,0.000000,-0.075000,0.000000,0.020000,left_z+,2,5,ok,2,,,,,,false,true,true,success,,,false,,
2026-05-21T11:02:31+08:00,left_z+,arm_relative_ik,left,0.000000,0.000000,0.005000,0.140000,0.000000,0.000000,-0.075000,0.000000,0.025000,left_z+,3,5,ok,3,,,,,,false,true,true,success,,,false,,
2026-05-21T11:02:32+08:00,left_z+,arm_relative_ik,left,0.000000,0.000000,0.005000,0.140000,0.000000,0.000000,-0.075000,0.000000,0.030000,left_z+,4,5,ok,4,,,,,,false,true,true,success,,,false,,
2026-05-21T11:02:33+08:00,left_z+,arm_relative_ik,left,0.000000,0.000000,0.005000,0.140000,0.000000,0.000000,-0.075000,0.000000,0.035000,left_z+,5,5,ok,5,,,,,,false,true,true,success,,,false,,
2026-05-21T11:02:33+08:00,left_z+ 5,repeat,,,,,0.140000,0.000000,0.000000,-0.075000,0.000000,0.035000,left_z+,,5,ok,5,,,,,,false,true,true,success,,,false,,
2026-05-21T11:02:43+08:00,left_z+,arm_relative_ik,left,0.000000,0.000000,0.005000,0.140000,0.000000,0.000000,-0.075000,0.000000,0.040000,left_z+,1,10,ok,1,,,,,,false,true,true,success,,,false,,
2026-05-21T11:02:44+08:00,left_z+,arm_relative_ik,left,0.000000,0.000000,0.005000,0.140000,0.000000,0.000000,-0.075000,0.000000,0.045000,left_z+,2,10,ok,2,,,,,,false,true,true,success,,,false,,
2026-05-21T11:02:45+08:00,left_z+,arm_relative_ik,left,0.000000,0.000000,0.005000,0.140000,0.000000,0.000000,-0.075000,0.000000,0.050000,left_z+,3,10,ok,3,,,,,,false,true,true,success,,,false,,
2026-05-21T11:02:46+08:00,left_z+,arm_relative_ik,left,0.000000,0.000000,0.005000,0.140000,0.000000,0.000000,-0.075000,0.000000,0.055000,left_z+,4,10,ok,4,,,,,,false,true,true,success,,,false,,
2026-05-21T11:02:47+08:00,left_z+,arm_relative_ik,left,0.000000,0.000000,0.005000,0.140000,0.000000,0.000000,-0.075000,0.000000,0.060000,left_z+,5,10,ok,5,,,,,,false,true,true,success,,,false,,
2026-05-21T11:02:48+08:00,left_z+,arm_relative_ik,left,0.000000,0.000000,0.005000,0.140000,0.000000,0.000000,-0.075000,0.000000,0.065000,left_z+,6,10,ok,6,,,,,,false,true,true,success,,,false,,
2026-05-21T11:02:49+08:00,left_z+,arm_relative_ik,left,0.000000,0.000000,0.005000,0.140000,0.000000,0.000000,-0.075000,0.000000,0.070000,left_z+,7,10,ok,7,,,,,,false,true,true,success,,,false,,
2026-05-21T11:02:50+08:00,left_z+,arm_relative_ik,left,0.000000,0.000000,0.005000,0.140000,0.000000,0.000000,-0.075000,0.000000,0.075000,left_z+,8,10,ok,8,,,,,,false,true,true,success,,,false,,
2026-05-21T11:02:51+08:00,left_z+,arm_relative_ik,left,0.000000,0.000000,0.005000,0.140000,0.000000,0.000000,-0.075000,0.000000,0.080000,left_z+,9,10,ok,9,,,,,,false,true,true,success,,,false,,
2026-05-21T11:02:52+08:00,left_z+,arm_relative_ik,left,0.000000,0.000000,0.005000,0.140000,0.000000,0.000000,-0.075000,0.000000,0.085000,left_z+,10,10,ok,10,,,,,,false,true,true,success,,,false,,
2026-05-21T11:02:52+08:00,left_z+ 10,repeat,,,,,0.140000,0.000000,0.000000,-0.075000,0.000000,0.085000,left_z+,,10,ok,10,,,,,,false,true,true,success,,,false,,
2026-05-21T11:03:25+08:00,left_y-,arm_relative_ik,left,0.000000,-0.003000,0.000000,0.140000,0.000000,0.000000,-0.075000,-0.003000,0.085000,left_y-,1,10,ok,1,,,,,,false,true,true,success,,,false,,
2026-05-21T11:03:26+08:00,left_y-,arm_relative_ik,left,0.000000,-0.003000,0.000000,0.140000,0.000000,0.000000,-0.075000,-0.006000,0.085000,left_y-,2,10,ok,2,,,,,,false,true,true,success,,,false,,
2026-05-21T11:03:27+08:00,left_y-,arm_relative_ik,left,0.000000,-0.003000,0.000000,0.140000,0.000000,0.000000,-0.075000,-0.009000,0.085000,left_y-,3,10,ok,3,,,,,,false,true,true,success,,,false,,
2026-05-21T11:03:28+08:00,left_y-,arm_relative_ik,left,0.000000,-0.003000,0.000000,0.140000,0.000000,0.000000,-0.075000,-0.012000,0.085000,left_y-,4,10,ok,4,,,,,,false,true,true,success,,,false,,
2026-05-21T11:03:29+08:00,left_y-,arm_relative_ik,left,0.000000,-0.003000,0.000000,0.140000,0.000000,0.000000,-0.075000,-0.015000,0.085000,left_y-,5,10,ok,5,,,,,,false,true,true,success,,,false,,
2026-05-21T11:03:30+08:00,left_y-,arm_relative_ik,left,0.000000,-0.003000,0.000000,0.140000,0.000000,0.000000,-0.075000,-0.018000,0.085000,left_y-,6,10,ok,6,,,,,,false,true,true,success,,,false,,
2026-05-21T11:03:31+08:00,left_y-,arm_relative_ik,left,0.000000,-0.003000,0.000000,0.140000,0.000000,0.000000,-0.075000,-0.021000,0.085000,left_y-,7,10,ok,7,,,,,,false,true,true,success,,,false,,
2026-05-21T11:03:32+08:00,left_y-,arm_relative_ik,left,0.000000,-0.003000,0.000000,0.140000,0.000000,0.000000,-0.075000,-0.024000,0.085000,left_y-,8,10,ok,8,,,,,,false,true,true,success,,,false,,
2026-05-21T11:03:33+08:00,left_y-,arm_relative_ik,left,0.000000,-0.003000,0.000000,0.140000,0.000000,0.000000,-0.075000,-0.027000,0.085000,left_y-,9,10,ok,9,,,,,,false,true,true,success,,,false,,
2026-05-21T11:03:34+08:00,left_y-,arm_relative_ik,left,0.000000,-0.003000,0.000000,0.140000,0.000000,0.000000,-0.075000,-0.030000,0.085000,left_y-,10,10,ok,10,,,,,,false,true,true,success,,,false,,
2026-05-21T11:03:34+08:00,left_y- 10,repeat,,,,,0.140000,0.000000,0.000000,-0.075000,-0.030000,0.085000,left_y-,,10,ok,10,,,,,,false,true,true,success,,,false,,
2026-05-21T11:03:53+08:00,left_y-,arm_relative_ik,left,0.000000,-0.003000,0.000000,0.140000,0.000000,0.000000,-0.075000,-0.033000,0.085000,left_y-,1,20,ok,1,,,,,,false,true,true,success,,,false,,
2026-05-21T11:03:54+08:00,left_y-,arm_relative_ik,left,0.000000,-0.003000,0.000000,0.140000,0.000000,0.000000,-0.075000,-0.036000,0.085000,left_y-,2,20,ok,2,,,,,,false,true,true,success,,,false,,
2026-05-21T11:03:55+08:00,left_y-,arm_relative_ik,left,0.000000,-0.003000,0.000000,0.140000,0.000000,0.000000,-0.075000,-0.039000,0.085000,left_y-,3,20,ok,3,,,,,,false,true,true,success,,,false,,
2026-05-21T11:03:57+08:00,left_y-,arm_relative_ik,left,0.000000,-0.003000,0.000000,0.140000,0.000000,0.000000,-0.075000,-0.042000,0.085000,left_y-,4,20,ok,4,,,,,,false,true,true,success,,,false,,
2026-05-21T11:03:58+08:00,left_y-,arm_relative_ik,left,0.000000,-0.003000,0.000000,0.140000,0.000000,0.000000,-0.075000,-0.045000,0.085000,left_y-,5,20,ok,5,,,,,,false,true,true,success,,,false,,
2026-05-21T11:03:59+08:00,left_y-,arm_relative_ik,left,0.000000,-0.003000,0.000000,0.140000,0.000000,0.000000,-0.075000,-0.048000,0.085000,left_y-,6,20,ok,6,,,,,,false,true,true,success,,,false,,
2026-05-21T11:04:00+08:00,left_y-,arm_relative_ik,left,0.000000,-0.003000,0.000000,0.140000,0.000000,0.000000,-0.075000,-0.051000,0.085000,left_y-,7,20,ok,7,,,,,,false,true,true,success,,,false,,
2026-05-21T11:04:01+08:00,left_y-,arm_relative_ik,left,0.000000,-0.003000,0.000000,0.140000,0.000000,0.000000,-0.075000,-0.054000,0.085000,left_y-,8,20,ok,8,,,,,,false,true,true,success,,,false,,
2026-05-21T11:04:02+08:00,left_y-,arm_relative_ik,left,0.000000,-0.003000,0.000000,0.140000,0.000000,0.000000,-0.075000,-0.057000,0.085000,left_y-,9,20,ok,9,,,,,,false,true,true,success,,,false,,
2026-05-21T11:04:03+08:00,left_y-,arm_relative_ik,left,0.000000,-0.003000,0.000000,0.140000,0.000000,0.000000,-0.075000,-0.060000,0.085000,left_y-,10,20,ok,10,,,,,,false,true,true,success,,,false,,
2026-05-21T11:04:04+08:00,left_y-,arm_relative_ik,left,0.000000,-0.003000,0.000000,0.140000,0.000000,0.000000,-0.075000,-0.063000,0.085000,left_y-,11,20,ok,11,,,,,,false,true,true,success,,,false,,
2026-05-21T11:04:05+08:00,left_y-,arm_relative_ik,left,0.000000,-0.003000,0.000000,0.140000,0.000000,0.000000,-0.075000,-0.066000,0.085000,left_y-,12,20,ok,12,,,,,,false,true,true,success,,,false,,
2026-05-21T11:04:06+08:00,left_y-,arm_relative_ik,left,0.000000,-0.003000,0.000000,0.140000,0.000000,0.000000,-0.075000,-0.069000,0.085000,left_y-,13,20,ok,13,,,,,,false,true,true,success,,,false,,
2026-05-21T11:04:07+08:00,left_y-,arm_relative_ik,left,0.000000,-0.003000,0.000000,0.140000,0.000000,0.000000,-0.075000,-0.072000,0.085000,left_y-,14,20,ok,14,,,,,,false,true,true,success,,,false,,
2026-05-21T11:04:08+08:00,left_y-,arm_relative_ik,left,0.000000,-0.003000,0.000000,0.140000,0.000000,0.000000,-0.075000,-0.075000,0.085000,left_y-,15,20,ok,15,,,,,,false,true,true,success,,,false,,
2026-05-21T11:04:09+08:00,left_y-,arm_relative_ik,left,0.000000,-0.003000,0.000000,0.140000,0.000000,0.000000,-0.075000,-0.078000,0.085000,left_y-,16,20,ok,16,,,,,,false,true,true,success,,,false,,
2026-05-21T11:04:10+08:00,left_y-,arm_relative_ik,left,0.000000,-0.003000,0.000000,0.140000,0.000000,0.000000,-0.075000,-0.081000,0.085000,left_y-,17,20,ok,17,,,,,,false,true,true,success,,,false,,
2026-05-21T11:04:11+08:00,left_y-,arm_relative_ik,left,0.000000,-0.003000,0.000000,0.140000,0.000000,0.000000,-0.075000,-0.084000,0.085000,left_y-,18,20,ok,18,,,,,,false,true,true,success,,,false,,
2026-05-21T11:04:12+08:00,left_y-,arm_relative_ik,left,0.000000,-0.003000,0.000000,0.140000,0.000000,0.000000,-0.075000,-0.087000,0.085000,left_y-,19,20,ok,19,,,,,,false,true,true,success,,,false,,
2026-05-21T11:04:13+08:00,left_y-,arm_relative_ik,left,0.000000,-0.003000,0.000000,0.140000,0.000000,0.000000,-0.075000,-0.090000,0.085000,left_y-,20,20,ok,20,,,,,,false,true,true,success,,,false,,
2026-05-21T11:04:13+08:00,left_y- 20,repeat,,,,,0.140000,0.000000,0.000000,-0.075000,-0.090000,0.085000,left_y-,,20,ok,20,,,,,,false,true,true,success,,,false,,
2026-05-21T11:05:10+08:00,left_z+,arm_relative_ik,left,0.000000,0.000000,0.005000,0.140000,0.000000,0.000000,-0.075000,-0.090000,0.090000,left_z+,1,10,ok,1,,,,,,false,true,true,success,,,false,,
2026-05-21T11:05:11+08:00,left_z+,arm_relative_ik,left,0.000000,0.000000,0.005000,0.140000,0.000000,0.000000,-0.075000,-0.090000,0.095000,left_z+,2,10,ok,2,,,,,,false,true,true,success,,,false,,
2026-05-21T11:05:12+08:00,left_z+,arm_relative_ik,left,0.000000,0.000000,0.005000,0.140000,0.000000,0.000000,-0.075000,-0.090000,0.100000,left_z+,3,10,ok,3,,,,,,false,true,true,success,,,false,,
2026-05-21T11:05:13+08:00,left_z+,arm_relative_ik,left,0.000000,0.000000,0.005000,0.140000,0.000000,0.000000,-0.075000,-0.090000,0.105000,left_z+,4,10,ok,4,,,,,,false,true,true,success,,,false,,
2026-05-21T11:05:14+08:00,left_z+,arm_relative_ik,left,0.000000,0.000000,0.005000,0.140000,0.000000,0.000000,-0.075000,-0.090000,0.110000,left_z+,5,10,ok,5,,,,,,false,true,true,success,,,false,,
2026-05-21T11:05:15+08:00,left_z+,arm_relative_ik,left,0.000000,0.000000,0.005000,0.140000,0.000000,0.000000,-0.075000,-0.090000,0.115000,left_z+,6,10,ok,6,,,,,,false,true,true,success,,,false,,
2026-05-21T11:05:16+08:00,left_z+,arm_relative_ik,left,0.000000,0.000000,0.005000,0.140000,0.000000,0.000000,-0.075000,-0.090000,0.120000,left_z+,7,10,ok,7,,,,,,false,true,true,success,,,false,,
2026-05-21T11:05:17+08:00,left_z+,arm_relative_ik,left,0.000000,0.000000,0.005000,0.140000,0.000000,0.000000,-0.075000,-0.090000,0.125000,left_z+,8,10,ok,8,,,,,,false,true,true,success,,,false,,
2026-05-21T11:05:18+08:00,left_z+,arm_relative_ik,left,0.000000,0.000000,0.005000,0.140000,0.000000,0.000000,-0.075000,-0.090000,0.130000,left_z+,9,10,ok,9,,,,,,false,true,true,success,,,false,,
2026-05-21T11:05:19+08:00,left_z+,arm_relative_ik,left,0.000000,0.000000,0.005000,0.140000,0.000000,0.000000,-0.075000,-0.090000,0.135000,left_z+,10,10,ok,10,,,,,,false,true,true,success,,,false,,
2026-05-21T11:05:19+08:00,left_z+ 10,repeat,,,,,0.140000,0.000000,0.000000,-0.075000,-0.090000,0.135000,left_z+,,10,ok,10,,,,,,false,true,true,success,,,false,,
2026-05-21T11:06:11+08:00,left_z+,arm_relative_ik,left,0.000000,0.000000,0.005000,0.140000,0.000000,0.000000,-0.075000,-0.090000,0.140000,left_z+,1,20,ok,1,,,,,,false,true,true,success,,,false,,
2026-05-21T11:06:12+08:00,left_z+,arm_relative_ik,left,0.000000,0.000000,0.005000,0.140000,0.000000,0.000000,-0.075000,-0.090000,0.145000,left_z+,2,20,ok,2,,,,,,false,true,true,success,,,false,,
2026-05-21T11:06:13+08:00,left_z+,arm_relative_ik,left,0.000000,0.000000,0.005000,0.140000,0.000000,0.000000,-0.075000,-0.090000,0.150000,left_z+,3,20,ok,3,,,,,,false,true,true,success,,,false,,
2026-05-21T11:06:14+08:00,left_z+,arm_relative_ik,left,0.000000,0.000000,0.005000,0.140000,0.000000,0.000000,-0.075000,-0.090000,0.155000,left_z+,4,20,ok,4,,,,,,false,true,true,success,,,false,,
2026-05-21T11:06:15+08:00,left_z+,arm_relative_ik,left,0.000000,0.000000,0.005000,0.140000,0.000000,0.000000,-0.075000,-0.090000,0.160000,left_z+,5,20,ok,5,,,,,,false,true,true,success,,,false,,
2026-05-21T11:06:16+08:00,left_z+,arm_relative_ik,left,0.000000,0.000000,0.005000,0.140000,0.000000,0.000000,-0.075000,-0.090000,0.165000,left_z+,6,20,ok,6,,,,,,false,true,true,success,,,false,,
2026-05-21T11:06:17+08:00,left_z+,arm_relative_ik,left,0.000000,0.000000,0.005000,0.140000,0.000000,0.000000,-0.075000,-0.090000,0.170000,left_z+,7,20,ok,7,,,,,,false,true,true,success,,,false,,
2026-05-21T11:06:18+08:00,left_z+,arm_relative_ik,left,0.000000,0.000000,0.005000,0.140000,0.000000,0.000000,-0.075000,-0.090000,0.175000,left_z+,8,20,ok,8,,,,,,false,true,true,success,,,false,,
2026-05-21T11:06:19+08:00,left_z+,arm_relative_ik,left,0.000000,0.000000,0.005000,0.140000,0.000000,0.000000,-0.075000,-0.090000,0.180000,left_z+,9,20,ok,9,,,,,,false,true,true,success,,,false,,
2026-05-21T11:06:20+08:00,left_z+,arm_relative_ik,left,0.000000,0.000000,0.005000,0.140000,0.000000,0.000000,-0.075000,-0.090000,0.185000,left_z+,10,20,ok,10,,,,,,false,true,true,success,,,false,,
2026-05-21T11:06:21+08:00,left_z+,arm_relative_ik,left,0.000000,0.000000,0.005000,0.140000,0.000000,0.000000,-0.075000,-0.090000,0.190000,left_z+,11,20,ok,11,,,,,,false,true,true,success,,,false,,
2026-05-21T11:06:22+08:00,left_z+,arm_relative_ik,left,0.000000,0.000000,0.005000,0.140000,0.000000,0.000000,-0.075000,-0.090000,0.195000,left_z+,12,20,ok,12,,,,,,false,true,true,success,,,false,,
2026-05-21T11:06:23+08:00,left_z+,arm_relative_ik,left,0.000000,0.000000,0.005000,0.140000,0.000000,0.000000,-0.075000,-0.090000,0.200000,left_z+,13,20,ok,13,,,,,,false,true,true,success,,,false,,
2026-05-21T11:06:25+08:00,left_z+,arm_relative_ik,left,0.000000,0.000000,0.005000,0.140000,0.000000,0.000000,-0.075000,-0.090000,0.205000,left_z+,14,20,ok,14,,,,,,false,true,true,success,,,false,,
2026-05-21T11:06:26+08:00,left_z+,arm_relative_ik,left,0.000000,0.000000,0.005000,0.140000,0.000000,0.000000,-0.075000,-0.090000,0.210000,left_z+,15,20,ok,15,,,,,,false,true,true,success,,,false,,
2026-05-21T11:06:27+08:00,left_z+,arm_relative_ik,left,0.000000,0.000000,0.005000,0.140000,0.000000,0.000000,-0.075000,-0.090000,0.215000,left_z+,16,20,ok,16,,,,,,false,true,true,success,,,false,,
2026-05-21T11:06:28+08:00,left_z+,arm_relative_ik,left,0.000000,0.000000,0.005000,0.140000,0.000000,0.000000,-0.075000,-0.090000,0.220000,left_z+,17,20,ok,17,,,,,,false,true,true,success,,,false,,
2026-05-21T11:06:29+08:00,left_z+,arm_relative_ik,left,0.000000,0.000000,0.005000,0.140000,0.000000,0.000000,-0.075000,-0.090000,0.225000,left_z+,18,20,ok,18,,,,,,false,true,true,success,,,false,,
2026-05-21T11:06:30+08:00,left_z+,arm_relative_ik,left,0.000000,0.000000,0.005000,0.140000,0.000000,0.000000,-0.075000,-0.090000,0.230000,left_z+,19,20,ok,19,,,,,,false,true,true,success,,,false,,
2026-05-21T11:06:31+08:00,left_z+,arm_relative_ik,left,0.000000,0.000000,0.005000,0.140000,0.000000,0.000000,-0.075000,-0.090000,0.235000,left_z+,20,20,ok,20,,,,,,false,true,true,success,,,false,,
2026-05-21T11:06:31+08:00,left_z+ 20,repeat,,,,,0.140000,0.000000,0.000000,-0.075000,-0.090000,0.235000,left_z+,,20,ok,20,,,,,,false,true,true,success,,,false,,
2026-05-21T11:06:52+08:00,left_y-,arm_relative_ik,left,0.000000,-0.003000,0.000000,0.140000,0.000000,0.000000,-0.075000,-0.093000,0.235000,left_y-,1,10,ok,1,,,,,,false,true,true,success,,,false,,
2026-05-21T11:06:53+08:00,left_y-,arm_relative_ik,left,0.000000,-0.003000,0.000000,0.140000,0.000000,0.000000,-0.075000,-0.096000,0.235000,left_y-,2,10,ok,2,,,,,,false,true,true,success,,,false,,
2026-05-21T11:06:54+08:00,left_y-,arm_relative_ik,left,0.000000,-0.003000,0.000000,0.140000,0.000000,0.000000,-0.075000,-0.099000,0.235000,left_y-,3,10,ok,3,,,,,,false,true,true,success,,,false,,
2026-05-21T11:06:55+08:00,left_y-,arm_relative_ik,left,0.000000,-0.003000,0.000000,0.140000,0.000000,0.000000,-0.075000,-0.102000,0.235000,left_y-,4,10,ok,4,,,,,,false,true,true,success,,,false,,
2026-05-21T11:06:56+08:00,left_y-,arm_relative_ik,left,0.000000,-0.003000,0.000000,0.140000,0.000000,0.000000,-0.075000,-0.105000,0.235000,left_y-,5,10,ok,5,,,,,,false,true,true,success,,,false,,
2026-05-21T11:06:57+08:00,left_y-,arm_relative_ik,left,0.000000,-0.003000,0.000000,0.140000,0.000000,0.000000,-0.075000,-0.108000,0.235000,left_y-,6,10,ok,6,,,,,,false,true,true,success,,,false,,
2026-05-21T11:06:58+08:00,left_y-,arm_relative_ik,left,0.000000,-0.003000,0.000000,0.140000,0.000000,0.000000,-0.075000,-0.111000,0.235000,left_y-,7,10,ok,7,,,,,,false,true,true,success,,,false,,
2026-05-21T11:06:59+08:00,left_y-,arm_relative_ik,left,0.000000,-0.003000,0.000000,0.140000,0.000000,0.000000,-0.075000,-0.114000,0.235000,left_y-,8,10,ok,8,,,,,,false,true,true,success,,,false,,
2026-05-21T11:07:00+08:00,left_y-,arm_relative_ik,left,0.000000,-0.003000,0.000000,0.140000,0.000000,0.000000,-0.075000,-0.117000,0.235000,left_y-,9,10,ok,9,,,,,,false,true,true,success,,,false,,
2026-05-21T11:07:01+08:00,left_y-,arm_relative_ik,left,0.000000,-0.003000,0.000000,0.140000,0.000000,0.000000,-0.075000,-0.120000,0.235000,left_y-,10,10,ok,10,,,,,,false,true,true,success,,,false,,
2026-05-21T11:07:01+08:00,left_y- 10,repeat,,,,,0.140000,0.000000,0.000000,-0.075000,-0.120000,0.235000,left_y-,,10,ok,10,,,,,,false,true,true,success,,,false,,
2026-05-21T11:09:43+08:00,show_state,show_state,,,,,0.140000,0.000000,0.000000,-0.075000,-0.120000,0.235000,,,,,,,,,,,false,true,,shown,,"right_offset=(dx=+0.140000, dy=+0.000000, dz=+0.000000) left_offset=(dx=-0.075000, dy=-0.120000, dz=+0.235000)",false,,
2026-05-21T11:10:00+08:00,obs,observation,,,,,0.140000,0.000000,0.000000,-0.075000,-0.120000,0.235000,,,,,,,,,,,false,true,,recorded,uncertain,left_alignment_candidate_01_spout_in_cup_safe,false,,
2026-05-21T11:10:09+08:00,save_pose,save_pose,,,,,0.140000,0.000000,0.000000,-0.075000,-0.120000,0.235000,,,,,,,,,,,false,true,,saved,uncertain,"right_offset=(dx=+0.140000, dy=+0.000000, dz=+0.000000) left_offset=(dx=-0.075000, dy=-0.120000, dz=+0.235000)",false,left_alignment_candidate_01,pour_alignment_calib/logs/pour_align_candidates.jsonl
2026-05-21T11:11:29+08:00,right_z-,arm_relative_ik,right,0.000000,0.000000,-0.005000,0.140000,0.000000,-0.005000,-0.075000,-0.120000,0.235000,right_z-,1,10,ok,1,,,,,,false,true,true,success,,,false,,
2026-05-21T11:11:30+08:00,right_z-,arm_relative_ik,right,0.000000,0.000000,-0.005000,0.140000,0.000000,-0.010000,-0.075000,-0.120000,0.235000,right_z-,2,10,ok,2,,,,,,false,true,true,success,,,false,,
2026-05-21T11:11:31+08:00,right_z-,arm_relative_ik,right,0.000000,0.000000,-0.005000,0.140000,0.000000,-0.015000,-0.075000,-0.120000,0.235000,right_z-,3,10,ok,3,,,,,,false,true,true,success,,,false,,
2026-05-21T11:11:32+08:00,right_z-,arm_relative_ik,right,0.000000,0.000000,-0.005000,0.140000,0.000000,-0.020000,-0.075000,-0.120000,0.235000,right_z-,4,10,ok,4,,,,,,false,true,true,success,,,false,,
2026-05-21T11:11:33+08:00,right_z-,arm_relative_ik,right,0.000000,0.000000,-0.005000,0.140000,0.000000,-0.025000,-0.075000,-0.120000,0.235000,right_z-,5,10,ok,5,,,,,,false,true,true,success,,,false,,
2026-05-21T11:11:34+08:00,right_z-,arm_relative_ik,right,0.000000,0.000000,-0.005000,0.140000,0.000000,-0.030000,-0.075000,-0.120000,0.235000,right_z-,6,10,ok,6,,,,,,false,true,true,success,,,false,,
2026-05-21T11:11:35+08:00,right_z-,arm_relative_ik,right,0.000000,0.000000,-0.005000,0.140000,0.000000,-0.035000,-0.075000,-0.120000,0.235000,right_z-,7,10,ok,7,,,,,,false,true,true,success,,,false,,
2026-05-21T11:11:36+08:00,right_z-,arm_relative_ik,right,0.000000,0.000000,-0.005000,0.140000,0.000000,-0.040000,-0.075000,-0.120000,0.235000,right_z-,8,10,ok,8,,,,,,false,true,true,success,,,false,,
2026-05-21T11:11:37+08:00,right_z-,arm_relative_ik,right,0.000000,0.000000,-0.005000,0.140000,0.000000,-0.045000,-0.075000,-0.120000,0.235000,right_z-,9,10,ok,9,,,,,,false,true,true,success,,,false,,
2026-05-21T11:11:38+08:00,right_z-,arm_relative_ik,right,0.000000,0.000000,-0.005000,0.140000,0.000000,-0.050000,-0.075000,-0.120000,0.235000,right_z-,10,10,ok,10,,,,,,false,true,true,success,,,false,,
2026-05-21T11:11:38+08:00,right_z- 10,repeat,,,,,0.140000,0.000000,-0.050000,-0.075000,-0.120000,0.235000,right_z-,,10,ok,10,,,,,,false,true,true,success,,,false,,
2026-05-21T11:11:51+08:00,show,unknown,,,,,0.140000,0.000000,-0.050000,-0.075000,-0.120000,0.235000,,,,,,,,,,,false,true,,unknown_command,,,false,,
2026-05-21T11:12:01+08:00,show_state,show_state,,,,,0.140000,0.000000,-0.050000,-0.075000,-0.120000,0.235000,,,,,,,,,,,false,true,,shown,uncertain,"right_offset=(dx=+0.140000, dy=+0.000000, dz=-0.050000) left_offset=(dx=-0.075000, dy=-0.120000, dz=+0.235000)",false,,
2026-05-21T11:14:08+08:00,roll0,left_wrist_adjust,left,,,,0.140000,0.000000,-0.050000,-0.075000,-0.120000,0.235000,,,,,,"{""joint"":""left_wrist_roll"",""target"":0.0}",0.000000,,,,false,true,true,success,,,false,,
2026-05-21T11:14:18+08:00,roll07,left_wrist_adjust,left,,,,0.140000,0.000000,-0.050000,-0.075000,-0.120000,0.235000,,,,,,"{""joint"":""left_wrist_roll"",""target"":0.7}",0.700000,,,,false,true,true,success,,,false,,
2026-05-21T11:14:26+08:00,roll0,left_wrist_adjust,left,,,,0.140000,0.000000,-0.050000,-0.075000,-0.120000,0.235000,,,,,,"{""joint"":""left_wrist_roll"",""target"":0.0}",0.000000,,,,false,true,true,success,,,false,,
2026-05-21T11:14:59+08:00,left_roll-,left_wrist_adjust,left,,,,0.140000,0.000000,-0.050000,-0.075000,-0.120000,0.235000,,,,,,"{""joint"":""left_wrist_roll"",""target"":-0.05}",-0.050000,,,,false,true,true,success,,,false,,
2026-05-21T11:15:05+08:00,left_roll-,left_wrist_adjust,left,,,,0.140000,0.000000,-0.050000,-0.075000,-0.120000,0.235000,,,,,,"{""joint"":""left_wrist_roll"",""target"":-0.1}",-0.100000,,,,false,true,true,success,,,false,,
2026-05-21T11:15:09+08:00,left_roll-,left_wrist_adjust,left,,,,0.140000,0.000000,-0.050000,-0.075000,-0.120000,0.235000,,,,,,"{""joint"":""left_wrist_roll"",""target"":-0.15000000000000002}",-0.150000,,,,false,true,true,success,,,false,,
2026-05-21T11:15:14+08:00,left_roll-,left_wrist_adjust,left,,,,0.140000,0.000000,-0.050000,-0.075000,-0.120000,0.235000,,,,,,"{""joint"":""left_wrist_roll"",""target"":-0.2}",-0.200000,,,,false,true,true,success,,,false,,
2026-05-21T11:15:24+08:00,left_yaw+,left_wrist_adjust,left,,,,0.140000,0.000000,-0.050000,-0.075000,-0.120000,0.235000,,,,,,"{""joint"":""left_wrist_yaw"",""target"":0.05}",,0.050000,,,false,true,true,success,,,false,,
2026-05-21T11:15:40+08:00,left_yaw+,left_wrist_adjust,left,,,,0.140000,0.000000,-0.050000,-0.075000,-0.120000,0.235000,,,,,,"{""joint"":""left_wrist_yaw"",""target"":0.1}",,0.100000,,,false,true,true,success,,,false,,
2026-05-21T11:15:47+08:00,left_yaw+,left_wrist_adjust,left,,,,0.140000,0.000000,-0.050000,-0.075000,-0.120000,0.235000,,,,,,"{""joint"":""left_wrist_yaw"",""target"":0.15000000000000002}",,0.150000,,,false,true,true,success,,,false,,
2026-05-21T11:15:58+08:00,left_yaw+,left_wrist_adjust,left,,,,0.140000,0.000000,-0.050000,-0.075000,-0.120000,0.235000,,,,,,"{""joint"":""left_wrist_yaw"",""target"":0.2}",,0.200000,,,false,true,true,success,,,false,,
2026-05-21T11:16:07+08:00,left_yaw+,left_wrist_adjust,left,,,,0.140000,0.000000,-0.050000,-0.075000,-0.120000,0.235000,,,,,,"{""joint"":""left_wrist_yaw"",""target"":0.25}",,0.250000,,,false,true,false,skipped_by_user,,,false,,
2026-05-21T11:16:13+08:00,left_yaw+,left_wrist_adjust,left,,,,0.140000,0.000000,-0.050000,-0.075000,-0.120000,0.235000,,,,,,"{""joint"":""left_wrist_yaw"",""target"":0.25}",,0.250000,,,false,true,true,success,,,false,,
2026-05-21T11:16:17+08:00,left_yaw-,left_wrist_adjust,left,,,,0.140000,0.000000,-0.050000,-0.075000,-0.120000,0.235000,,,,,,"{""joint"":""left_wrist_yaw"",""target"":0.2}",,0.200000,,,false,true,true,success,,,false,,
2026-05-21T11:16:22+08:00,left_yaw-,left_wrist_adjust,left,,,,0.140000,0.000000,-0.050000,-0.075000,-0.120000,0.235000,,,,,,"{""joint"":""left_wrist_yaw"",""target"":0.15000000000000002}",,0.150000,,,false,true,true,success,,,false,,
2026-05-21T11:16:26+08:00,left_yaw-,left_wrist_adjust,left,,,,0.140000,0.000000,-0.050000,-0.075000,-0.120000,0.235000,,,,,,"{""joint"":""left_wrist_yaw"",""target"":0.10000000000000002}",,0.100000,,,false,true,true,success,,,false,,
2026-05-21T11:16:33+08:00,left_yaw-,left_wrist_adjust,left,,,,0.140000,0.000000,-0.050000,-0.075000,-0.120000,0.235000,,,,,,"{""joint"":""left_wrist_yaw"",""target"":0.05000000000000002}",,0.050000,,,false,true,true,success,,,false,,
2026-05-21T11:16:39+08:00,left_yaw-,left_wrist_adjust,left,,,,0.140000,0.000000,-0.050000,-0.075000,-0.120000,0.235000,,,,,,"{""joint"":""left_wrist_yaw"",""target"":1.3877787807814457e-17}",,0.000000,,,false,true,true,success,,,false,,
2026-05-21T11:16:47+08:00,left_yaw-,left_wrist_adjust,left,,,,0.140000,0.000000,-0.050000,-0.075000,-0.120000,0.235000,,,,,,"{""joint"":""left_wrist_yaw"",""target"":-0.04999999999999999}",,-0.050000,,,false,true,true,success,,,false,,
2026-05-21T11:16:51+08:00,left_yaw-,left_wrist_adjust,left,,,,0.140000,0.000000,-0.050000,-0.075000,-0.120000,0.235000,,,,,,"{""joint"":""left_wrist_yaw"",""target"":-0.09999999999999999}",,-0.100000,,,false,true,true,success,,,false,,
2026-05-21T11:16:54+08:00,left_yaw-,left_wrist_adjust,left,,,,0.140000,0.000000,-0.050000,-0.075000,-0.120000,0.235000,,,,,,"{""joint"":""left_wrist_yaw"",""target"":-0.15}",,-0.150000,,,false,true,true,success,,,false,,
2026-05-21T11:16:58+08:00,left_yaw-,left_wrist_adjust,left,,,,0.140000,0.000000,-0.050000,-0.075000,-0.120000,0.235000,,,,,,"{""joint"":""left_wrist_yaw"",""target"":-0.2}",,-0.200000,,,false,true,true,success,,,false,,
2026-05-21T11:17:15+08:00,left_yaw-,left_wrist_adjust,left,,,,0.140000,0.000000,-0.050000,-0.075000,-0.120000,0.235000,left_yaw-,1,3,ok,1,"{""joint"":""left_wrist_yaw"",""target"":-0.25}",,-0.250000,,,false,true,true,success,,,false,,
2026-05-21T11:17:16+08:00,left_yaw-,left_wrist_adjust,left,,,,0.140000,0.000000,-0.050000,-0.075000,-0.120000,0.235000,left_yaw-,2,3,ok,2,"{""joint"":""left_wrist_yaw"",""target"":-0.3}",,-0.300000,,,false,true,true,success,,,false,,
2026-05-21T11:17:17+08:00,left_yaw-,left_wrist_adjust,left,,,,0.140000,0.000000,-0.050000,-0.075000,-0.120000,0.235000,left_yaw-,3,3,ok,3,"{""joint"":""left_wrist_yaw"",""target"":-0.35}",,-0.350000,,,false,true,true,success,,,false,,
2026-05-21T11:17:17+08:00,left_yaw- 3,repeat,,,,,0.140000,0.000000,-0.050000,-0.075000,-0.120000,0.235000,left_yaw-,,3,ok,3,,,,,,false,true,true,success,,,false,,
2026-05-21T11:17:26+08:00,left_yaw+,left_wrist_adjust,left,,,,0.140000,0.000000,-0.050000,-0.075000,-0.120000,0.235000,,,,,,"{""joint"":""left_wrist_yaw"",""target"":-0.3}",,-0.300000,,,false,true,true,success,,,false,,
2026-05-21T11:20:50+08:00,left_pitch+,left_wrist_adjust,left,,,,0.140000,0.000000,-0.050000,-0.075000,-0.120000,0.235000,,,,,,"{""joint"":""left_wrist_pitch"",""target"":-0.4}",,,-0.400000,,false,true,true,success,,,false,,
2026-05-21T11:23:57+08:00,show_state,show_state,,,,,0.140000,0.000000,-0.050000,-0.075000,-0.120000,0.235000,,,,,,,,,,,false,true,,shown,uncertain,"right_offset=(dx=+0.140000, dy=+0.000000, dz=-0.050000) left_offset=(dx=-0.075000, dy=-0.120000, dz=+0.235000)",false,,
2026-05-21T11:25:00+08:00,obs,observation,,,,,0.140000,0.000000,-0.050000,-0.075000,-0.120000,0.235000,,,,,,,,,,,false,true,,recorded,spout_in_cup,spout_in_cup,false,,
2026-05-21T11:25:13+08:00,save,save,,,,,0.140000,0.000000,-0.050000,-0.075000,-0.120000,0.235000,,,,,,,,,,,false,true,,saved,spout_in_cup,"current_candidate_note_right_dx_0.140_right_dz_minus_0.050_left_dx_minus_0.075_left_dy_minus_0.120_left_dz_0.235_left_yaw_minus_0.300_pitch_minus_0.400_roll_minus_0.200 | right_offset=(dx=+0.140000, dy=+0.000000, dz=-0.050000) left_offset=(dx=-0.075000, dy=-0.120000, dz=+0.235000)",false,,
2026-05-21T11:25:20+08:00,save_pose,save_pose,,,,,0.140000,0.000000,-0.050000,-0.075000,-0.120000,0.235000,,,,,,,,,,,false,true,,saved,spout_in_cup,"right_offset=(dx=+0.140000, dy=+0.000000, dz=-0.050000) left_offset=(dx=-0.075000, dy=-0.120000, dz=+0.235000)",false,left_right_alignment_candidate_02,pour_alignment_calib/logs/pour_align_candidates.jsonl
2026-05-21T11:25:48+08:00,left_open,gripper,left,,,,0.140000,0.000000,-0.050000,-0.075000,-0.120000,0.235000,,,,,,,,,,1.000000,false,true,true,success,,,false,,
2026-05-21T11:26:01+08:00,right_open,gripper,right,,,,0.140000,0.000000,-0.050000,-0.075000,-0.120000,0.235000,,,,,,,,,,1.000000,false,true,true,success,,,false,,
